6 City of Interview,7 Type of Outlet,8 Company,10 Outlet Name,43 - NFR Present or Not,44 Area bracket (sq. feet),44 Approx. area (sq. feet),Monthly Revenue (FR),Rev per Sq. Ft (FR),Margin per Sq. Ft (FR),Monthly Revenue (NFR),NFR revenues as % of Total revenues,Rev per Sq. ft (NFR),Margin per Sq. Ft (NFR),Monthly NFR Profit,Cost as % of Revenue,Demographics - Population - Total,Demographics - Male Population,Demographics - Female Population,Demographics - Total Literate Population,Demographics - Male %,Demographics - Female %,Demographics - Literacy %,Grocery / Hypermart - Concentration of Grocery / Hypermart With respect to Population,Restaurant - Concentration of Restaurant With respect to Population,Hospital - Concentration of Hospital With respect to Population,Police Station - Concentration of Police Station  With respect to Population,Higher Education Institutes - Concentration of higher education institutes  With respect to Population,Apparel Brands Budget - Concentration of apparel brands budget  With respect to Population,Apparel Brands Mid Range - Concentration of apparel brands mid range  With respect to Population,Apparel Brands - Luxury - High Range - Concentration of apparel brands - luxury - high range With respect to Population,Electronics Store - Concentration of Electronics Store  With respect to Population,Gym - Concentration of Gym  With respect to Population,Gym Mid-Range - Concentration of gym mid-range  With respect to Population,Pet Store - Concentration of Pet Store  With respect to Population,Car Rental - Concentration of Car Rental  With respect to Population,Clinics - Concentration of Clinics  With respect to Population,Dentist - Concentration of Dentist  With respect to Population,Pharmacy - Concentration of Pharmacy  With respect to Population,Private Sector Bank - Concentration of private sector bank  With respect to Population,Public Sector Bank - Concentration of public sector bank  With respect to Population,Cafe - Concentration of Cafe  With respect to Population,Latitude,Longitude,Address,Aggregated vehicle related requirements,Truck Stops (Auto Repair / Rest),QSR / Restaurant / Dhaba,Virtual C-store,One stop shop for daily farmer needs,Pharmacy,Forecourt Advertising
NH 48 (Delhi-Mumbai stretch),Highway,IOCL ,New Bombay Petroleum,1,"4) >20,000",27000,50000000,2469.135802,2444.444444,100000,0.001996008,14.81481481,10.37037037,70000,0.3,67489,18623,16359,27452,0.275941265,0.242395057,0.406762584,0.13336,0.17781,0.01482,0.01482,0.01482,0,0,0,0.20744,0,0,0,0,0,0,0.10372,0,0.04445,0.02963,19.097886,73.0714509,"New Bombay Petroleum, Highway Sanpada, NH 48 (Delhi-Mumbai stretch)",0,1,1,0,0,0,0
NH 48 (Delhi-Mumbai stretch),Highway,IOCL ,Jagnath Petrol Service,1,"4) >20,000",25000,40000000,2133.333333,2106.666667,335000,0.008305442,53.6,29.6,185000,0.447761194,255422,50385,44776,73020,0.197261786,0.175302049,0.285879838,1.28024,0.84958,0.34844,0.03132,0.14094,0,0.01175,0.00392,0.98269,0.11354,0,0.01958,0.01175,0.13703,0.2584,0.4659,0.16443,0.12528,0.08613,19.0331397,73.1052247,"Jagnath Petrol Service, Kalamboli Panvel Road, NH 48 (Delhi-Mumbai stretch)",0,1,1,0,0,0,0
NH 48 (Delhi-Mumbai stretch),Highway,IOCL ,Belapur Automobile,1,"4) >20,000",21000,40000000,2539.68254,2511.111111,450000,0.011124845,85.71428571,61.9047619,325000,0.277777778,209254,76548,66753,114021,0.365813796,0.319004655,0.54489281,0.97489,0.66426,0.25806,0.00956,0.08602,0,0.00956,0.00478,0.80285,0.10514,0.00478,0.03823,0.03823,0.15292,0.16248,0.54001,0.10036,0.06213,0.10514,19.1632121,73.0213256,"Belapur Automobile, Opp Belapur Stn Pune Bangalore Highway Belapur, NH 48 (Delhi-Mumbai stretch)",0,1,0,0,0,0,1
Nagpur,Rural,BPCL ,Bombay Automobiles,1,"4) >20,000",20000,20000000,1333.333333,1313.333333,90000,0.004479841,18,-12,-60000,1.666666667,62725,33111,31407,51853,0.527875648,0.500709446,0.826671981,1.67398,0.46234,0.30291,0.01594,0.17537,0,0,0,1.1957,0.12754,0,0,0,0.06377,0.01594,0.38262,0.04783,0.07971,0.03189,21.1454905,79.1717377,"Bombay Automobiles, Malgaon Village  Pardi Nagpur, Nagpur",0,0,0,0,1,0,0
NH-3 Indore,Highway,HPCL ,Supreme Auto Centre,1,"4) >20,000",20000,80000000,5333.333333,5298.333333,100000,0.001248439,20,12,60000,0.4,147288,57762,53450,81846,0.392170442,0.362894465,0.555686818,0.74684,0.8962,0.21726,0.02037,0.10184,0,0.03395,0.02037,0.80115,0.16295,0,0.02037,0.03395,0.14937,0.11542,0.39379,0.13579,0.17653,0.20368,22.774504,75.9029964,"Supreme Auto Centre, Dewas Naka, Lasudiya Mori, NH-3 Indore",0,1,1,0,0,0,0
NH-3 Indore,Highway,HPCL ,Gati Corporation Ltd.,1,"4) >20,000",20000,70000000,4666.666667,4640,220000,0.003133011,44,29,145000,0.340909091,128282,50309,46553,71285,0.392175052,0.362895808,0.555689808,0.69378,0.8263,0.1715,0.02339,0.07016,0,0.01559,0.02339,0.81071,0.10134,0,0.0078,0.03118,0.09354,0.06236,0.38977,0.10134,0.1637,0.1637,22.7780514,75.9033518,"Gati Corporation Ltd., Lasudiya Mori, Agra Bombay Highway, NH-3 Indore",0,0,1,0,0,0,0
Arra,Rural,Reliance ,Shriram Service Station,1,"4) >20,000",20000,4000000,266.6666667,250,35000,0.008674102,7,-3,-15000,1.428571429,29620,13563,12365,13658,0.457900068,0.417454423,0.46110736,0.03376,0.1688,0.10128,0,0.60769,0,0,0,0.10128,0,0,0,0,0.10128,0,0,0,0.20256,0.06752,28.8200421,78.6285581,"Shriram Service Station, Dhanupura, Arra",0,0,0,0,1,0,0
NH 2 - Palwal,Highway,HPCL ,M/S Motiram And Sons ,1,"4) >20,000",18000,50000000,3703.703704,3672.222222,150000,0.002991027,33.33333333,11.11111111,50000,0.666666667,89165,40467,35475,47984,0.453843997,0.397857904,0.538148377,0.96451,0.93086,0.94208,0.05608,0.23552,0.01122,0.01122,0,2.00752,0.24673,0,0.04486,0,0.16823,0.20187,0.67291,0.32524,0.35889,0.12337,28.138792,77.328192,"M/S Motiram And Sons , D.G.T. Road Palwal, NH 2 - Palwal",0,1,0,0,0,1,0
NH 48 (Delhi-Mumbai stretch),Highway,HPCL ,Gurukripa Petrol Pump,1,"4) >20,000",18000,100000000,7407.407407,7377.777778,245000,0.002444012,54.44444444,21.11111111,95000,0.612244898,234185,71498,62349,106498,0.305305634,0.26623823,0.454760126,1.67816,1.75502,0.39712,0.02135,0.28183,0,0.02562,0.00427,1.37071,0.29037,0,0.06832,0.0427,0.52949,0.41847,0.68749,0.30318,0.2434,0.2007,19.0429886,73.0088322,"Gurukripa Petrol Pump, Palm Beach Road Nerul, NH 48 (Delhi-Mumbai stretch)",0,1,0,0,0,0,0
Lucknow ,Rural,HPCL ,Mayur Filling Center ,1,"4) >20,000",16000,2000000,166.6666667,141.6666667,75000,0.036144578,18.75,1.25,5000,0.933333333,126656,57163,53072,73763,0.451324848,0.41902476,0.582388517,1.81594,0.91587,0.63163,0.10264,0.45004,0.06316,0.06316,0.04737,2.65285,0.12633,0,0.03948,0,0.26844,0.20528,1.68172,0.32371,0.65532,0.11843,26.7729751,82.1457934,"Mayur Filling Center , Faizabad BY Pass Road , Lucknow ",0,0,0,0,1,0,0
NCR,Urban,Essar/ Nayara,Essar Petrol Pump ,1,"3) 10,000 - 15,000",15000,15000000,1333.333333,1293.333333,130000,0.008592201,34.66666667,14.66666667,55000,0.576923077,23039,12074,10659,15929,0.524067885,0.462650289,0.691392856,2.90809,2.43065,2.47405,0.21702,0.52085,0.0434,0.0434,0.0434,4.42725,0.52085,0,0.0434,0,0.43404,0.30383,1.64937,0.73787,1.38894,0.21702,28.6131945,76.6457068,"Essar Petrol Pump , Jhajhar Road, Jewar, NCR",1,0,0,0,0,1,0
Lucknow ,Rural,BPCL ,Shivam Petroleum Pump,1,"4) >20,000",15500,6000000,516.1290323,490.3225806,70000,0.011532125,18.06451613,-5.161290323,-20000,1.285714286,14636,6045,5536,7628,0.413022684,0.378245422,0.52118065,0,0.13665,0.06832,0,0,0,0,0,0.06832,0,0,0,0,0,0,0.06832,0,0.06832,0,26.665228,80.924483,"Shivam Petroleum Pump, Mohanlalganj, Lucknow ",0,0,0,0,1,0,0
Patna,Urban,BPCL ,Bp Petroleum,1,"2) 5,000-10,000",9800,7000000,952.3809524,908.8435374,110000,0.015471167,44.89795918,14.28571429,35000,0.681818182,155787,67069,59732,85219,0.430517309,0.383420953,0.547022537,1.74598,0.70609,1.27739,0.02568,0.26318,0.01284,0.03851,0.01284,1.90645,0.1348,0,0.05777,0.01284,0.4044,0.30811,0.65474,0.19899,0.5071,0.18615,25.5774084,85.1523551,"Bp Petroleum, Dak Bangla, Patna",0,0,1,0,0,1,0
NH-3 Indore,Highway,Essar/ Nayara,Dwarka Filling Station,1,"3) 10,000 - 15,000",15000,85000000,7555.555556,7511.111111,25000,0.000294031,6.666666667,6.666666667,25000,0,17673,6167,5777,6906,0.348950376,0.326882816,0.390765575,0.84875,4.074,0.90533,0.11317,0.05658,0,0,0,1.52775,0.05658,0,0.05658,0.16975,0.05658,0.11317,0.679,0.56583,1.18825,0.679,22.2441975,68.9684562,"Dwarka Filling Station, Lasudiya Mori, Agra Bombay Road, NH-3 Indore",1,1,0,0,0,0,0
Hyderabad,Urban,HPCL ,Sri Radha Ramana Service Station,1,"3) 10,000 - 15,000",12000,20000000,2222.222222,2150,80000,0.003984064,26.66666667,18.33333333,55000,0.3125,329498,74523,72342,115351,0.226171327,0.219552167,0.350081032,2.00912,1.63582,0.86495,0.04856,0.91958,0.03338,0.1821,0.0607,2.96815,0.27314,0.00303,0.04552,0.03945,0.73445,0.41882,1.30805,0.56146,0.81032,0.35205,17.3985568,78.4929522,"Sri Radha Ramana Service Station, YMCA Chowrasta, Narayanguda, Hyderabad",1,0,0,0,0,1,0
NH-3 Indore,Highway,IOCL ,Unitara Automobles,1,"3) 10,000 - 15,000",15000,65000000,5777.777778,5724.444444,125000,0.001919386,33.33333333,24,90000,0.28,186565,83204,75206,124070,0.445978613,0.403108836,0.665022914,1.74738,0.82009,0.55209,0.03216,0.13936,0,0.00536,0,1.37754,0.2144,0,0.02144,0.03216,0.20904,0.27872,0.88977,0.20368,0.25192,0.12864,19.9615973,73.7641807,"Unitara Automobles, Lasudiya Mori, Agra Bombay Highway, NH-3 Indore",0,1,0,0,0,1,0
Nagpur,Rural,Reliance ,Hiwarkar Petrol,1,"3) 10,000 - 15,000",15000,25000000,2222.222222,2200,285000,0.011271505,76,36,135000,0.526315789,179859,88792,84869,141694,0.493675601,0.471864071,0.787806004,2.2184,0.77283,0.53375,0.01112,0.30579,0,0,0,1.3733,0.1946,0,0.03336,0,0.31135,0.20572,0.71167,0.07784,0.17792,0.08896,21.1176498,79.1354698,"Hiwarkar Petrol, Gulkeda Village Kalpana Road Nagpur , Nagpur",0,0,0,0,0,0,0
Hyderabad,Urban,Reliance ,Namskar Reliance Petro Marketing Ltd ,1,"3) 10,000 - 15,000",10000,25000000,3333.333333,3260,95000,0.003785615,38,22,55000,0.421052632,315101,119156,113990,174726,0.378151767,0.361757024,0.55450792,2.22468,1.77086,0.84417,0.11108,0.79974,0.04443,0.14281,0.04443,3.45603,0.22215,0,0.03808,0.05078,0.65693,0.29514,1.225,0.54586,0.78705,0.42526,17.385044,78.486671,"Namskar Reliance Petro Marketing Ltd , Kothapet Vegetables Market, Hyderabad",1,0,0,0,0,1,0
Lucknow ,Rural,IOCL ,Nvr Filling Station ,1,"3) 10,000 - 15,000",15000,3000000,266.6666667,240,45000,0.014778325,12,-14.66666667,-55000,2.222222222,28718,12391,11409,17160,0.431471551,0.397276969,0.597534647,1.32323,0.52233,0.24375,0,0.34822,0,0,0,1.4277,0.17411,0,0,0,0.17411,0.13929,0.34822,0,0.17411,0.17411,26.7482478,80.9068073,"Nvr Filling Station , Bijnor Road, Lucknow ",0,0,0,0,1,0,0
Hyderabad,Urban,BPCL ,Balakrishnaiah & Company,1,"3) 10,000 - 15,000",12000,30000000,3333.333333,3283.333333,582000,0.019030802,194,164,492000,0.154639175,260288,60578,57855,88659,0.232734509,0.222273021,0.340618853,2.47803,1.19483,0.77991,0.05379,0.6877,0.01921,0.08068,0.05379,1.93632,0.25357,0.00384,0.03458,0.02305,0.29967,0.36498,1.06036,0.42645,0.50329,0.24972,17.364878,78.5384893,"Balakrishnaiah & Company, Saroor Nagar, Xroad, Hyderabad",0,0,1,0,0,0,0
Hyderabad,Urban,HPCL ,MG Service Station,1,"3) 10,000 - 15,000",15000,20000000,1777.777778,1733.333333,35000,0.001746943,9.333333333,9.066666667,34000,0.028571429,232353,92881,90405,140330,0.399740911,0.389084712,0.603951746,3.00405,1.34709,0.71013,0.09899,0.60253,0,0.06025,0.00861,2.07443,0.28835,0,0.05165,0.01722,0.48633,0.31848,1.14481,0.49924,0.59392,0.44329,17.3912529,78.5124948,"MG Service Station, Auto Nagar Main Road, Hayath Nagar, Hyderabad",1,0,1,0,0,0,0
Ahmedabad,Urban,Reliance ,Pandya Petroleum,1,"1) < 5,000",2000,8000000,5333.333333,5033.333333,40000,0.004975124,80,-20,-10000,1.25,335007,142280,127761,211875,0.424707543,0.381368151,0.632449471,1.22087,0.88655,0.65969,0.06866,0.17015,0.01493,0.06866,0.01194,1.3343,0.09851,0,0.05075,0.00597,0.26865,0.18806,0.4985,0.1791,0.29552,0.15224,22.9991264,72.5932419,"Pandya Petroleum, Mira Cinema  Maninagaar Road, , Ahmedabad",0,0,0,1,0,0,0
Hyderabad,Urban,IOCL ,Kisan Seva Filling Station,1,"3) 10,000 - 15,000",13000,20000000,2051.282051,1994.871795,80000,0.003984064,24.61538462,12.30769231,40000,0.5,205499,97808,95083,148028,0.475953654,0.462693249,0.720334406,2.073,1.7129,0.64234,0.09732,0.48175,0.0438,0.16058,0.04866,3.45987,0.22385,0.00487,0.10706,0.05353,0.47689,0.22385,1.03163,0.59368,0.79806,0.28711,17.431758,78.4925935,"Kisan Seva Filling Station, MG Road, Kothaguda, Hyderabad",1,0,0,0,0,0,0
Patna,Urban,IOCL ,Laxmi Jagat Services Station,1,"2) 5,000-10,000",9540,7000000,978.3368274,926.6247379,50000,0.007092199,20.96436059,-2.096436059,-5000,1.1,156764,71841,63685,96239,0.458274859,0.406247608,0.613910081,1.9775,0.72083,0.6379,0.03827,0.28068,0,0.03827,0.00638,1.88819,0.14034,0,0.07017,0.00638,0.1531,0.16585,0.59963,0.14672,0.31257,0.14672,25.580049,85.126762,"Laxmi Jagat Services Station, Bailey Road, Patna",1,0,0,0,0,1,0
Lucknow ,Rural,HPCL ,Janta Automobile ,1,"3) 10,000 - 15,000",14000,10000000,952.3809524,928.5714286,100000,0.00990099,28.57142857,0,0,1,108222,46697,42993,64667,0.431492672,0.39726673,0.597540241,2.81829,1.05339,0.60986,0.06468,0.38809,0.05544,0.06468,0.01848,2.18071,0.33265,0.00924,0.07392,0.00924,0.58214,0.34189,0.85011,0.12936,0.28645,0.21253,26.77881,80.94268,"Janta Automobile , Safaidabad Lucknow , Lucknow ",0,0,0,0,0,0,0
Vijayawada,Rural,BPCL ,Bp Ibrahimpatnam,1,"3) 10,000 - 15,000",14000,20000000,1904.761905,1876.190476,15000,0.000749438,4.285714286,-10,-35000,3.333333333,17668,9296,9619,13137,0.52614897,0.544430609,0.743547657,1.69798,1.13198,0.50939,0.0566,1.18858,0,0,0,1.07538,0.1698,0,0,0.1698,0.1132,0.1698,0.39619,0.3396,0.73579,0.283,16.5988856,80.5107851,"Bp Ibrahimpatnam, Jupudi Village Vijayawada To Hyderabad Highway, Vijayawada",0,0,0,0,1,0,0
Ahmedabad,Urban,IOCL ,Sainik Seva Service,1,"3) 10,000 - 15,000",14000,18000000,1714.285714,1652.380952,35000,0.001940671,10,2.857142857,10000,0.714285714,399005,169461,152168,252350,0.424708964,0.381368655,0.632448215,1.05512,1.02505,0.49373,0.01253,0.19549,0.00752,0.07017,0.02757,1.23307,0.16291,0,0.04762,0.00501,0.51378,0.38596,0.39849,0.22556,0.29072,0.23057,23.0195344,72.5297618,"Sainik Seva Service, 132 feet Road, Satellite Road, Ahmedabad",1,0,0,1,0,0,0
NH-3 Indore,Highway,BPCL ,Sri Sai Filling Center,1,"3) 10,000 - 15,000",14000,90000000,8571.428571,8523.809524,100000,0.001109878,28.57142857,17.14285714,60000,0.4,16565,6774,6287,9378,0.4089345,0.379535165,0.566133414,0.24147,0.48295,0.06037,0,0.42258,0,0,0,0.12074,0,0,0,0,0,0,0.12074,0,0.06037,0.12074,22.7933774,75.9364918,"Sri Sai Filling Center, Talawali Chanda, Agra Bombay Highway, NH-3 Indore",0,1,0,0,0,0,0
Patna,Urban,BPCL ,Jaya Fuel,1,"2) 5,000-10,000",6500,5000000,1025.641026,953.8461538,120000,0.0234375,73.84615385,18.46153846,30000,0.75,277507,125968,111444,171170,0.453927288,0.40158987,0.61681327,1.46663,1.17114,0.47927,0.05766,0.47566,0.06126,0.24864,0.05405,1.60356,0.17297,0,0.06847,0.01802,0.49729,0.32432,0.47927,0.26306,0.69548,0.23783,25.6180864,85.1218195,"Jaya Fuel, Panchmukhi Mandir, Patna",0,0,0,1,0,0,0
Delhi,Urban,BPCL ,Rohini Filling Station ,1,"3) 10,000 - 15,000",13000,13000000,1333.333333,1292.307692,120000,0.009146341,36.92307692,9.230769231,30000,0.75,374591,234413,204502,330661,0.625783855,0.545934099,0.882725426,1.52433,1.46293,0.47785,0.04538,0.43247,0.06674,0.20289,0.06674,1.78862,0.40578,0.01335,0.05873,0.06407,0.67273,0.54192,0.62201,0.32569,0.42713,0.21357,28.7017529,77.1213263,"Rohini Filling Station , Sector 8 Rohini, Delhi",1,0,0,1,0,0,0
NH-3 Indore,Highway,IOCL ,Sidhh Vijay fuels,1,"3) 10,000 - 15,000",13000,80000000,8205.128205,8153.846154,70000,0.000874235,21.53846154,9.230769231,30000,0.571428571,186565,83204,75206,124070,0.445978613,0.403108836,0.665022914,1.74738,0.82009,0.55209,0.03216,0.13936,0,0.00536,0,1.37754,0.2144,0,0.02144,0.03216,0.20904,0.27872,0.88977,0.20368,0.25192,0.12864,19.9615973,73.7641807,"Sidhh Vijay fuels, Lasudiya Mori, Agra Bombay Road, NH-3 Indore",0,1,0,0,0,1,0
Patna,Urban,IOCL ,Prabhat Service Station,1,"2) 5,000-10,000",8100,8000000,1316.872428,1259.259259,50000,0.00621118,24.69135802,-12.34567901,-25000,1.5,153980,69845,61466,80959,0.45359787,0.399181712,0.525776075,1.30536,0.60397,0.47409,0.05845,0.20132,0.01948,0.03897,0.01299,1.28588,0.07793,0,0.03247,0.00649,0.18834,0.20782,0.578,0.16885,0.40265,0.05845,25.6225339,85.0432856,"Prabhat Service Station, Saguna More Balliey Road, Patna",1,0,0,0,0,0,0
Delhi,Urban,HPCL ,S B Filling Station ,1,"3) 10,000 - 15,000",13500,6000000,592.5925926,558.0246914,105000,0.017199017,31.11111111,4.444444444,15000,0.857142857,379143,234251,204367,330380,0.617843399,0.539023535,0.871386258,1.6801,1.32404,0.44047,0.04484,0.39827,0.06066,0.18199,0.06066,1.86737,0.37453,0.01055,0.05011,0.05275,0.61454,0.53278,0.60927,0.2532,0.32969,0.19781,28.7009364,77.1166042,"S B Filling Station , M2k Sector 3 Rohini, Delhi",1,0,1,1,0,0,0
Patna,Urban,HPCL ,Chetak Service Centre,1,"2) 5,000-10,000",6820,5000000,977.5171065,907.1358749,65000,0.012833169,38.12316716,2.93255132,5000,0.923076923,314512,142765,126305,193995,0.453925446,0.4015904,0.616812713,1.43079,1.19868,0.43878,0.06995,0.42606,0.05723,0.24482,0.05405,1.9109,0.17487,0,0.06995,0.01908,0.47693,0.30523,0.53098,0.27026,0.64226,0.24164,25.609499,85.122204,"Chetak Service Centre, Belly Road, Patna",1,0,0,0,0,0,0
Ahmedabad,Urban,HPCL ,Shreeji Auto,1,"1) < 5,000",4500,18000000,5333.333333,5200,20000,0.001109878,17.77777778,4.444444444,5000,0.75,362410,153919,138212,229206,0.424709583,0.381369168,0.632449436,1.27756,0.99335,0.43873,0.02483,0.10761,0.01104,0.06346,0.01656,1.14787,0.15452,0,0.03863,0.01932,0.33112,0.29249,0.44977,0.18487,0.23178,0.19039,23.0045931,72.5237681,"Shreeji Auto, Near Jivraj Park, Cross Road, Ahmedabad",0,0,0,1,0,0,0
Vijayawada,Rural,Reliance ,Reliance Petrol Pump,1,"3) 10,000 - 15,000",13000,8000000,820.5128205,800,70000,0.008674102,21.53846154,6.153846154,20000,0.714285714,4550,1760,1806,2018,0.386813187,0.396923077,0.443516484,0,0.2198,0,0,0,0,0,0,0,0.2198,0,0,0,0,0.2198,0.2198,0,0,0,16.5638643,80.2558288,"Reliance Petrol Pump, Jupudi Village Vijayawada To Hyderabad Highway, Vijayawada",0,0,0,0,1,0,0
Vijayawada,Rural,HPCL ,Ravi Service Station (HP) ,1,"3) 10,000 - 15,000",13000,20000000,2051.282051,2020.512821,20000,0.000999001,6.153846154,-15.38461538,-50000,3.5,3935,1734,1729,2314,0.440660737,0.439390089,0.588055909,0,0,0,0,0,0,0,0,0,0,0,0,0,0,0,0,0,0,0,16.518234,81.0071347,"Ravi Service Station (HP) , Tumalapally Village, Vijayawada",0,0,0,0,1,0,0
Vijayawada,Rural,IOCL ,Sri Surya Filling Station,1,"3) 10,000 - 15,000",12000,5000000,555.5555556,522.2222222,95000,0.018645731,31.66666667,13.33333333,40000,0.578947368,400037,247132,245672,361539,0.617772856,0.614123194,0.903763902,1.28988,1.23989,1.20489,0.06999,0.32247,0.015,0.08249,0.035,1.66485,0.15999,0,0.05,0.07749,0.36497,0.29247,0.77993,0.25498,0.47996,0.26998,16.5159517,80.6385561,"Sri Surya Filling Station, Eluru Road, Vijayawada",0,0,0,0,1,0,0
NH 2 - Palwal,Highway,IOCL ,IOCL,1,"3) 10,000 - 15,000",12000,60000000,6666.666667,6611.111111,201500,0.003347093,67.16666667,40.5,121500,0.397022333,86221,39132,34304,46400,0.453856949,0.39786131,0.538151958,0.90465,0.96264,0.98584,0.06959,0.23196,0.0116,0.0116,0,1.91368,0.19717,0,0.03479,0,0.13918,0.19717,0.71908,0.33634,0.37114,0.13918,28.1472852,77.3259878,"IOCL, Lalpur Chowk Palwal, NH 2 - Palwal",0,1,0,0,0,1,0
Guwahati,Urban,IOCL ,Ganga Filling Station,1,"3) 10,000 - 15,000",14900,9000000,805.3691275,774.049217,70000,0.007717751,18.79194631,4.026845638,15000,0.785714286,21613,6532,6069,10428,0.302225512,0.28080322,0.482487392,1.06416,1.1567,0.41641,0.04627,0.23134,0,0,0,0.92536,0.1388,0,0,0,0.1388,0,0.32388,0,0.27761,0,26.118521,91.6966852,"Ganga Filling Station, Boragaon, Guwahati",1,0,1,0,0,0,0
Hyderabad,Urban,HPCL ,Hayath Fillling Station,1,"3) 10,000 - 15,000",15000,22500000,2000,1946.666667,110000,0.004865104,29.33333333,18.66666667,70000,0.363636364,59189,20795,19794,29373,0.351332173,0.334420247,0.496257751,1.53745,0.54064,0.40548,0.03379,0.28722,0,0,0,0.86165,0.10137,0,0.05069,0,0.08448,0.10137,0.45617,0.20274,0.06758,0.03379,17.3224,78.6114,"Hayath Fillling Station, Hayath Nagar Main Road, Hyderabad",1,0,1,0,0,0,0
Lucknow ,Rural,IOCL ,Vinayak Kisan Seva Kendra Petrol Pump,1,"3) 10,000 - 15,000",12000,2000000,222.2222222,188.8888889,210000,0.095022624,70,28.33333333,85000,0.595238095,30872,13321,12264,18447,0.431491319,0.397253174,0.597531744,1.9435,0.93936,0.3887,0.06478,0.90697,0,0,0,1.71676,0.16196,0,0,0,0.12957,0.16196,0.48587,0.03239,0.32392,0.19435,26.7319135,80.9018847,"Vinayak Kisan Seva Kendra Petrol Pump, Bejnor Road, Lucknow ",0,0,0,0,1,0,0
Mumbai,Urban,HPCL ,Mangtram And Sons,1,"2) 5,000-10,000",7500,13000000,2311.111111,2248.888889,50000,0.003831418,26.66666667,-5.333333333,-10000,1.2,304013,153226,140502,235155,0.504011342,0.462157868,0.773503107,2.51305,1.26968,0.39143,0.07565,0.2171,0.00658,0.03618,0.01974,1.71374,0.23354,0,0.06908,0.01645,0.48024,0.28288,0.72694,0.2467,0.16447,0.1842,19.1397387,72.9307789,"Mangtram And Sons, Lbs Marg Mumbai, Mumbai",0,0,0,0,0,0,0
Ambala,Highway,HPCL ,Devi Oil Pump,1,"3) 10,000 - 15,000",12000,70000000,7777.777778,7733.333333,610000,0.008639003,203.3333333,161.6666667,485000,0.204918033,7651,3340,2976,4308,0.436544243,0.388968762,0.563063652,0,0.91495,0,0,0.13071,0,0,0,0,0,0,0,0,0,0.13071,0,0,0.13071,0,30.4303079,76.6904872,"Devi Oil Pump, Nh 44, Shambhu Border, Ambala",0,1,0,0,0,0,0
Hyderabad,Urban,BPCL ,Sai Siddhi Carrier,1,"3) 10,000 - 15,000",12000,23000000,2555.555556,2505.555556,95000,0.004113444,31.66666667,23.33333333,70000,0.263157895,72346,22052,20983,31507,0.304812982,0.290036768,0.435504382,1.64487,0.64965,0.38703,0.04147,0.40085,0,0,0,0.93992,0.11058,0,0.02764,0,0.08293,0.1244,0.64965,0.2488,0.22116,0.02764,17.324684,78.605024,"Sai Siddhi Carrier, Bhagyalath Hayath Nagat, Hyderabad",1,0,1,0,0,0,0
Vijayawada,Rural,IOCL ,Navabhargav Filling Station ( Indiana Oil Bank),1,"3) 10,000 - 15,000",10000,8000000,1066.666667,1010.666667,50000,0.00621118,20,-2,-5000,1.1,59189,20795,19794,29373,0.351332173,0.334420247,0.496257751,1.53745,0.54064,0.40548,0.03379,0.28722,0,0,0,0.86165,0.10137,0,0.05069,0,0.08448,0.10137,0.45617,0.20274,0.06758,0.03379,40.2671941,86.1349019,"Navabhargav Filling Station ( Indiana Oil Bank), Tumalapally Village, Vijayawada",0,0,0,0,1,0,1
Bangalore,Urban,IOCL ,Mk Enterprise,1,"2) 5,000-10,000",7200,5000000,925.9259259,851.8518519,75000,0.014778325,41.66666667,11.11111111,20000,0.733333333,320896,10610,9379,13984,0.033063672,0.029227538,0.043577982,2.03805,1.22781,0.38019,0.02493,0.31786,0.00935,0.04363,0.00623,1.64851,0.29916,0,0.06233,0.0374,0.25865,0.35214,0.82893,0.26488,0.29605,0.23684,12.943383,77.54123,"Mk Enterprise, Girinage, Bangalore",0,0,0,0,0,0,0
NH 2 - Palwal,Highway,Essar/ Nayara,BBRS Green Fuels,1,"3) 10,000 - 15,000",10000,75000000,10000,9946.666667,290000,0.003851773,116,56,140000,0.517241379,28076,12743,11170,15109,0.453875196,0.397848696,0.53814646,0.53426,0.28494,0.17809,0,0.10685,0,0,0,0.2137,0,0,0,0,0,0,0.03562,0.14247,0,0.07123,28.2150154,77.3032005,"BBRS Green Fuels, 50 Km Stone Village Baghola, NH 2 - Palwal",0,1,0,0,0,0,0
Ahmedabad,Urban,BPCL ,Krishna Petroleum,1,"3) 10,000 - 15,000",10000,11000000,1466.666667,1420,50000,0.004524887,20,-2,-5000,1.1,250744,106493,95626,158583,0.424708069,0.381369046,0.632449829,0.96912,0.54239,0.37887,0.04387,0.07179,0.00798,0.02393,0.00399,1.21239,0.05583,0,0.02792,0.00798,0.14756,0.09173,0.35096,0.0678,0.15953,0.10369,22.9907591,72.5823894,"Krishna Petroleum, Vatva Turning, Narol Road , Ahmedabad",1,0,0,1,0,0,0
Ahmedabad,Urban,Essar/ Nayara,Elhann Corporation,1,"3) 10,000 - 15,000",13000,10000000,1025.641026,989.7435897,50000,0.004975124,15.38461538,-7.692307692,-25000,1.5,258560,109813,98607,163526,0.424709932,0.381369895,0.632448948,1.40393,0.76191,0.36742,0.03094,0.05415,0,0.0116,0.00774,1.10226,0.08895,0,0.03868,0.01547,0.19725,0.13923,0.43317,0.08509,0.13923,0.12376,22.9932539,72.5258273,"Elhann Corporation, Sarkhej- Juhapura Road, Ahmedabad",1,0,0,1,0,0,1
Delhi,Urban,HPCL ,Service Circle ,1,"2) 5,000-10,000",9500,12500000,1754.385965,1698.245614,400000,0.031007752,168.4210526,96.84210526,230000,0.425,355495,165728,144780,245728,0.466189398,0.407263112,0.691227725,1.36148,1.48244,0.35725,0.04501,0.23629,0.01969,0.11815,0.03938,1.36711,0.32068,0.00563,0.03938,0.02813,0.4979,0.36006,0.54291,0.35725,0.37694,0.19691,28.5715009,77.2592998,"Service Circle , Ashram Chowk, Delhi",1,0,0,1,0,0,0
Hyderabad,Urban,Essar/ Nayara,Saptagiri Filling Station,1,"2) 5,000-10,000",8000,7000000,1166.666667,1125,130000,0.018232819,65,30,60000,0.538461538,64471,19337,18399,27667,0.299933303,0.285384126,0.429138683,1.41149,0.52737,0.35675,0.04653,0.40328,0,0,0,0.86861,0.09307,0,0.03102,0,0.09307,0.10858,0.54288,0.20164,0.15511,0.03102,17.3304008,78.6077223,"Saptagiri Filling Station, Kuntloor Road Hayath Nagar, Hyderabad",0,0,0,1,0,0,0
Nagpur,Rural,BPCL ,Rahi Petroleum,1,"2) 5,000-10,000",9000,10000000,1481.481481,1451.851852,195000,0.019127023,86.66666667,15.55555556,35000,0.820512821,220770,103222,99419,167133,0.467554468,0.450328396,0.757045794,1.13693,1.91149,1.28188,0.05436,0.7655,0.04077,0.1223,0.05436,1.19582,0.26725,0,0.08153,0.03171,1.4223,0.51185,0.69303,0.26725,0.48467,0.48467,21.1357011,79.0609229,"Rahi Petroleum, Village Shailesh Nagar   Nagpur , Nagpur",0,0,0,0,1,0,0
NH 2 - Palwal,Highway,HPCL ,Shri Radha Filling Station ,1,"2) 5,000-10,000",8500,90000000,14117.64706,14062.7451,1430000,0.015640381,672.9411765,602.3529412,1280000,0.104895105,93316,42352,37126,50218,0.453855716,0.397852458,0.538149942,1.05019,0.90016,0.91088,0.05358,0.21432,0.01072,0.01072,0,2.03608,0.21432,0,0.03215,0,0.13931,0.19289,0.68584,0.32149,0.35364,0.12859,28.1448739,77.3350893,"Shri Radha Filling Station , Mathura Road Palwal, NH 2 - Palwal",1,0,1,0,0,1,0
Arra,Rural,BPCL ,Vindyawasni Fuel Station,1,"2) 5,000-10,000",8500,800000,125.4901961,78.43137255,45000,0.053254438,21.17647059,-35.29411765,-75000,2.666666667,30007,13532,12303,14533,4.51E-01,0.410004332,4.84E-01,1.63294,0.43323,0.36658,0.06665,0.1333,0,0,0,1.29968,0,0,0,0,0.03333,0,0.33325,0.03333,0.2666,0,25.4793386,84.4291592,"Vindyawasni Fuel Station, Arra Mohaniya Road Naya Tola Jagdishpur, Arra",0,0,0,0,1,0,0
Delhi,Urban,BPCL ,Laxmi filling station,1,"1) < 5,000",2700,30000000,14814.81481,14518.51852,151000,0.005008126,223.7037037,179.2592593,121000,0.198675497,323831,127735,112217,186023,0.394449574,0.346529517,0.574444695,1.42667,1.39579,0.31498,0.04014,0.26557,0.04632,0.10808,0.04014,1.84973,0.36439,0.00309,0.07411,0.04014,0.46629,0.2841,0.47247,0.29027,0.42306,0.1544,28.6402194,77.0749581,"Laxmi filling station, G1 Shopping Centre, Vikas Puri, Delhi",0,0,0,1,0,0,0
Mumbai,Urban,HPCL ,Western Petroleum,1,"2) 5,000-10,000",5000,16000000,4266.666667,4160,45000,0.002804612,36,-12,-15000,1.333333333,291270,149323,137327,229571,0.512661791,0.471476637,0.788172486,2.24877,1.91575,0.30213,0.05837,0.19913,0.03433,0.14763,0.05837,1.61706,0.21973,0,0.06523,0.01373,0.59052,0.26436,0.58022,0.35362,0.21286,0.21286,19.110381,72.925668,"Western Petroleum, Lbs Road Vikroli, Mumbai",0,0,0,0,0,0,0
Mumbai,Urban,BPCL ,Vikroli Petrol Pump,1,"2) 5,000-10,000",5500,10000000,2424.242424,2351.515152,45000,0.004479841,32.72727273,-21.81818182,-30000,1.666666667,281274,149978,137928,230577,0.533209611,0.490368822,0.819759381,2.16159,1.83095,0.29153,0.02133,0.17421,0.03911,0.14932,0.06044,1.7243,0.19909,0,0.05688,0,0.60439,0.24887,0.64706,0.35197,0.19909,0.19198,19.1053,72.9224666,"Vikroli Petrol Pump, Lbs Road Powai Bypass Vikroli, Mumbai",0,0,0,0,0,0,0
Guwahati,Urban,Essar/ Nayara,Yunic Service,1,"3) 10,000 - 15,000",14200,9000000,845.0704225,816.9014085,80000,0.008810573,22.53521127,2.816901408,10000,0.875,37807,11487,10696,17901,0.303832624,0.282910572,0.473483746,1.40187,1.56058,0.29095,0.02645,0.29095,0.02645,0.0529,0.02645,1.05802,0.39676,0,0.0529,0.07935,0.13225,0.2645,0.34386,0.0529,0.29095,0.13225,26.1584955,91.8118724,"Yunic Service, Vip Road,Near Pratiksha Hospital, Guwahati",1,0,0,1,0,0,0
NH 2 - Palwal,Highway,BPCL ,Roop Filling Station ,1,"2) 5,000-10,000",8000,150000000,25000,24916.66667,260000,0.001730334,130,55,110000,0.576923077,24962,11329,9931,13433,0.453849852,0.397844724,0.53813797,0.44067,0.44067,0.12018,0,0,0,0,0,0.2003,0.08012,0,0,0,0,0,0,0.12018,0.36055,0.04006,28.23914,77.2897742,"Roop Filling Station , 47 Km Stone Main Mathura Road Village Prithla Palwal, NH 2 - Palwal",0,1,0,0,0,0,1
Delhi,Urban,HPCL ,Kapoor Service Station,1,"2) 5,000-10,000",8500,16000000,2509.803922,2447.058824,110000,0.006828057,51.76470588,16.47058824,35000,0.681818182,490396,418882,372679,574086,0.854170915,0.75995522,0.99,2.42865,0.57301,0.28956,0.04282,0.13255,0.00816,0.03263,0.00612,2.47351,0.20188,0,0.02039,0.00612,0.24062,0.21819,0.80751,0.15498,0.21207,0.06525,28.7016898,77.2881532,"Kapoor Service Station, Wazirabad Road, Gokulpur, Shahadra, Delhi",1,0,1,0,0,0,0
Nagpur,Rural,IOCL ,Vij Sons,1,"2) 5,000-10,000",7500,30000000,5333.333333,5288.888889,165000,0.005469915,88,8,15000,0.909090909,99309,46433,44722,75182,0.467560845,0.450331793,0.757051224,1.66148,0.84584,0.3323,0.04028,0.12083,0,0.01007,0,1.70175,0.11077,0,0.02014,0,0.12083,0.05035,0.54376,0.15104,0.16111,0.1309,21.152976,79.0045888,"Vij Sons, Gondkheri Bhandari Road Nagpur Amravati , Nagpur",0,0,0,0,1,0,0
Mumbai,Urban,Reliance ,Relance Petrol Pump,1,"1) < 5,000",1800,10000000,7407.407407,7185.185185,500000,0.047619048,1111.111111,777.7777778,350000,0.3,276449,90938,79301,135454,0.328950367,0.286855803,0.48997826,1.35649,1.74354,0.2713,0.02532,0.24959,0.01809,0.14107,0.06873,1.46501,0.21704,0,0.06149,0.02532,0.41961,0.28215,0.60047,0.27853,0.15193,0.23874,19.0551081,73.0068708,"Relance Petrol Pump, Sec 18 Palm Beach Road Sanpada, Mumbai",0,0,0,1,0,0,1
Guwahati,Urban,HPCL ,Shree Service Station,1,"4) >20,000",15600,6000000,512.8205128,491.4529915,110000,0.018003273,28.20512821,12.82051282,50000,0.545454545,37220,11248,10451,17958,0.302203117,0.280789898,0.482482536,0.91348,1.37022,0.26867,0.02687,0.21494,0,0,0,1.04781,0.21494,0,0,0,0.26867,0.1612,0.64481,0.05373,0.45674,0.0806,26.11238,91.7331,"Shree Service Station, Betkuchi, Guwahati",1,0,1,0,0,0,0
Guwahati,Urban,HPCL ,Shivam Filling Station,1,"3) 10,000 - 15,000",14200,6000000,563.3802817,535.2112676,90000,0.014778325,25.35211268,11.26760563,40000,0.555555556,115093,34781,32316,55531,0.302199091,0.280781629,0.482488075,1.1469,1.62477,0.26066,0.03475,0.33886,0.03475,0.05213,0.00869,0.74722,0.37361,0,0.06082,0.05213,0.21722,0.26935,0.59951,0.12164,0.50394,0.17377,26.1401348,91.8117088,"Shivam Filling Station, Vip Road, Sixmile,Chachal, Guwahati",1,0,0,1,0,0,0
Guwahati,Urban,IOCL ,Bharali Service Station,1,"3) 10,000 - 15,000",14200,15000000,1408.450704,1384.976526,172500,0.011369254,48.5915493,26.05633803,92500,0.463768116,69310,20945,19461,33441,0.302193046,0.280781994,0.48248449,1.76022,0.77911,0.21642,0.08657,0.18756,0.01443,0.02886,0,1.32738,0.23085,0,0.05771,0.01443,0.07214,0.21642,0.99553,0.17314,0.63483,0.08657,26.1428448,91.7417433,"Bharali Service Station, Lokhra Road, Lalganesh, Guwahati",1,0,1,0,0,0,0
Nagpur,Rural,IOCL ,Ravindra Automobile,1,"2) 5,000-10,000",5000,20000000,5333.333333,5253.333333,205000,0.010146003,164,24,30000,0.853658537,277976,129970,125181,210441,0.46755835,0.450330244,0.757047371,2.45704,1.16197,0.62235,0.10073,0.30938,0,0.04317,0.04317,1.79871,0.21944,0,0.05756,0.01079,0.46767,0.29139,0.87777,0.24103,0.40651,0.15109,21.1483611,79.1231204,"Ravindra Automobile, Near  Village Bagadganj Wardhwan Nagar Nagpur, Nagpur",0,0,0,0,0,0,1
Nagpur,Rural,HPCL ,Swami Narayan Petroleum,1,"2) 5,000-10,000",5000,22500000,6000,5933.333333,100000,0.004424779,80,20,25000,0.75,150167,70479,67845,113998,0.469337471,0.451796999,0.759141489,2.16426,0.80577,0.45283,0.00666,0.23973,0,0.00666,0.01998,1.38513,0.19312,0,0.00666,0,0.27303,0.17314,0.58602,0.07325,0.26637,0.09323,21.1373936,79.1454689,"Swami Narayan Petroleum, Village Kharbi  Near To Swaminarayan Mandir Nagpur, Nagpur",0,0,0,0,1,0,0
Lucknow ,Rural,Reliance ,Reliance Petrol Pump,1,"2) 5,000-10,000",5000,5000000,1333.333333,1253.333333,55000,0.010880317,44,-36,-45000,1.818181818,89617,38669,35602,53550,0.431491793,0.397268375,0.597542877,1.91929,1.62916,0.36823,0.04463,0.62488,0.03348,0.01116,0.01116,1.53989,0.1897,0,0.01116,0,0.34592,0.16738,0.50214,0.14506,0.34592,0.37939,26.8833144,81.043738,"Reliance Petrol Pump, Tiwari Ganj, Lucknow ",0,0,0,0,1,0,0
Guwahati,Urban,Shell ,Fuel City East Shell India Pvt Ltd,1,"2) 5,000-10,000",8400,10000000,1587.301587,1539.68254,205000,0.020088192,97.61904762,21.42857143,45000,0.780487805,9738,3880,3659,5262,0.398439105,0.375744506,0.540357363,0,0,0.20537,0,0.10269,0,0,0,0.10269,0,0,0,0,0,0,0.30806,0,0.20537,0,26.3503918,91.8284263,"Fuel City East Shell India Pvt Ltd, Guwahati Mangaldoi Road,Maruwa Chuburi, Guwahati",0,0,0,1,0,0,0
Guwahati,Urban,BPCL ,Kamakhya Energy Point,1,"3) 10,000 - 15,000",13000,8000000,820.5128205,784.6153846,90000,0.011124845,27.69230769,9.230769231,30000,0.666666667,119403,36084,33526,57611,0.302203462,0.280780215,0.482492065,1.41537,1.38187,0.17587,0.0335,0.37687,0,0.067,0,1.38187,0.3015,0,0.067,0.0335,0.37687,0.24287,0.737,0.24287,0.66162,0.07537,26.1161644,91.7868286,"Kamakhya Energy Point, Bhetapara, Guwahati",1,0,0,1,0,0,0
Ahmedabad,Urban,HPCL ,Highway service center,1,"3) 10,000 - 15,000",13000,17000000,1743.589744,1676.923077,20000,0.001175088,6.153846154,5.538461538,18000,0.1,201434,85551,76821,127397,0.424709831,0.381370573,0.632450331,0.84891,0.86877,0.16383,0.02979,0.09929,0,0.00993,0,1.01274,0.06454,0,0.02979,0.00496,0.07447,0.05461,0.39219,0.09432,0.08936,0.19858,22.9871607,72.5029534,"Highway service center, Sarkhej Cross Road, Near Police Station, Ahmedabad",1,0,1,1,0,0,0
Guwahati,Urban,BPCL ,Bhabani Filling Station,1,"3) 10,000 - 15,000",14500,5000000,459.7701149,436.7816092,60000,0.011857708,16.55172414,-4.137931034,-15000,1.25,34133,10315,9584,16469,0.302200217,0.280783992,0.482494946,0.61524,0.96681,0.14649,0,0.26367,0,0,0,0.93751,0.17578,0,0.0293,0,0.23438,0.14649,0.41016,0.05859,0.35157,0.08789,26.1117473,91.7458407,"Bhabani Filling Station, Lalung Gaon, Guwahati",1,0,1,0,0,0,0
NH 48 (Delhi-Mumbai stretch),Highway,BPCL ,Bp Kalamboli 2,1,"1) < 5,000",2000,70000000,46666.66667,46400,230000,0.003274954,460,80,40000,0.826086957,255422,50385,44776,73020,0.197261786,0.175302049,0.285879838,1.28024,0.84958,0.34844,0.03132,0.14094,0,0.01175,0.00392,0.98269,0.11354,0,0.01958,0.01175,0.13703,0.2584,0.4659,0.16443,0.12528,0.08613,19.0331397,73.1052247,"Bp Kalamboli 2, Kalamboli, NH 48 (Delhi-Mumbai stretch)",0,0,0,0,0,0,0
Patna,Urban,Reliance ,Ganga Sagar Fuel Station,1,"3) 10,000 - 15,000",10000,7000000,933.3333333,886.6666667,60000,0.008498584,24,8,20000,0.666666667,22108,9025,7912,9231,0.408223268,0.357879501,0.417541162,0.04523,0.04523,0.04523,0,0.04523,0,0,0,0,0,0,0,0,0,0,0,0,0.04523,0,25.3236595,86.0236364,"Ganga Sagar Fuel Station, Badpur, Patna",1,0,1,1,0,0,0
